{
  "requestType": "itinerary",
  "requestVersion": 2,
  "options": {
    "title": "Colorado County Seats",
    "earthRadius": "3440"
  },
  "places": [
    { "name": "Brighton", "id": "1", "latitude": "39.87", "longitude": "-104.33", "municipality": "Adams County" },
    { "name": "Alamosa", "id": "2", "latitude": "37.57", "longitude": "-105.79", "municipality": "Alamosa County" },
    { "name": "Littleton", "id": "3", "latitude": "39.64", "longitude": "-104.33", "municipality": "Arapahoe County" },
    { "name": "Pagosa Springs", "id": "4", "latitude": "37.2", "longitude": "-107.05", "municipality": "Archuleta County" },
    { "name": "Springfield", "id": "5", "latitude": "37.3", "longitude": "-102.54", "municipality": "Baca County" },
    { "name": "Las Animas", "id": "6", "latitude": "37.93", "longitude": "-103.08", "municipality": "Bent County" },
    { "name": "Boulder", "id": "7", "latitude": "40.09", "longitude": "-105.4", "municipality": "Boulder County" },
    { "name": "Broomfield", "id": "8", "latitude": "39.95", "longitude": "-105.05", "municipality": "County of Broomfield" },
    { "name": "Salida", "id": "9", "latitude": "38.74", "longitude": "-106.32", "municipality": "Chaffee County" },
    { "name": "Cheyenne Wells", "id": "10", "latitude": "38.84", "longitude": "-102.6", "municipality": "Cheyenne County" },
    { "name": "Georgetown", "id": "11", "latitude": "39.69", "longitude": "-105.67", "municipality": "Clear Creek County" },
    { "name": "Conejos", "id": "12", "latitude": "37.21", "longitude": "-106.18", "municipality": "Conejos County" },
    { "name": "San Luis", "id": "13", "latitude": "37.28", "longitude": "-105.43", "municipality": "Costilla County" },
    { "name": "Ordway", "id": "14", "latitude": "38.32", "longitude": "-103.79", "municipality": "Crowley County" },
    { "name": "Westcliffe", "id": "15", "latitude": "38.1", "longitude": "-105.37", "municipality": "Custer County" },
    { "name": "Delta", "id": "16", "latitude": "38.86", "longitude": "-107.86", "municipality": "Delta County" },
    { "name": "Denver", "id": "17", "latitude": "39.76", "longitude": "-104.88", "municipality": "County of Denver" },
    { "name": "Dove Creek", "id": "18", "latitude": "37.75", "longitude": "-108.53", "municipality": "Dolores County" },
    { "name": "Castle Rock", "id": "19", "latitude": "39.33", "longitude": "-104.93", "municipality": "Douglas County" },
    { "name": "Eagle", "id": "20", "latitude": "39.63", "longitude": "-106.69", "municipality": "Eagle County" },
    { "name": "Kiowa", "id": "21", "latitude": "39.31", "longitude": "-104.12", "municipality": "Elbert County" },
    { "name": "Colorado Springs", "id": "22", "latitude": "38.83", "longitude": "-104.53", "municipality": "El Paso County" },
    { "name": "Canon City", "id": "23", "latitude": "38.46", "longitude": "-105.42", "municipality": "Fremont County" },
    { "name": "Glenwood Springs", "id": "24", "latitude": "39.6", "longitude": "-107.91", "municipality": "Garfield County" },
    { "name": "Central City", "id": "25", "latitude": "39.86", "longitude": "-105.53", "municipality": "Gilpin County" },
    { "name": "Hot Sulphur Springs", "id": "26", "latitude": "40.12", "longitude": "-106.1", "municipality": "Grand County" },
    { "name": "Gunnison", "id": "27", "latitude": "38.67", "longitude": "-107.08", "municipality": "Gunnison County" },
    { "name": "Lake City", "id": "28", "latitude": "37.81", "longitude": "-107.38", "municipality": "Hinsdale County" },
    { "name": "Walsenburg", "id": "29", "latitude": "37.69", "longitude": "-104.96", "municipality": "Huerfano County" },
    { "name": "Walden", "id": "30", "latitude": "40.66", "longitude": "-106.33", "municipality": "Jackson County" },
    { "name": "Golden", "id": "31", "latitude": "39.59", "longitude": "-105.25", "municipality": "Jefferson County" },
    { "name": "Eads", "id": "32", "latitude": "38.39", "longitude": "-102.76", "municipality": "Kiowa County" },
    { "name": "Burlington", "id": "33", "latitude": "39.31", "longitude": "-102.6", "municipality": "Kit Carson County" },
    { "name": "Leadville", "id": "34", "latitude": "39.2", "longitude": "-106.35", "municipality": "Lake County" },
    { "name": "Durango", "id": "35", "latitude": "37.29", "longitude": "-107.84", "municipality": "La Plata County" },
    { "name": "Fort Collins", "id": "36", "latitude": "40.66", "longitude": "-105.48", "municipality": "Larimer County" },
    { "name": "Trinidad", "id": "37", "latitude": "37.32", "longitude": "-104.04", "municipality": "Las Animas County" },
    { "name": "Hugo", "id": "38", "latitude": "38.99", "longitude": "-103.51", "municipality": "Lincoln County" },
    { "name": "Sterling", "id": "39", "latitude": "40.73", "longitude": "-103.09", "municipality": "Logan County" },
    { "name": "Grand Junction", "id": "40", "latitude": "39.02", "longitude": "-108.46", "municipality": "Mesa County" },
    { "name": "Creede", "id": "41", "latitude": "37.65", "longitude": "-106.93", "municipality": "Mineral County" },
    { "name": "Craig", "id": "42", "latitude": "40.57", "longitude": "-108.2", "municipality": "Moffat County" },
    { "name": "Cortez", "id": "43", "latitude": "37.34", "longitude": "-108.6", "municipality": "Montezuma County" },
    { "name": "Montrose", "id": "44", "latitude": "38.41", "longitude": "-108.26", "municipality": "Montrose County" },
    { "name": "Fort Morgan", "id": "45", "latitude": "40.26", "longitude": "-103.81", "municipality": "Morgan County" },
    { "name": "La Junta", "id": "46", "latitude": "37.88", "longitude": "-103.72", "municipality": "Otero County" },
    { "name": "Ouray", "id": "47", "latitude": "38.15", "longitude": "-107.77", "municipality": "Ouray County" },
    { "name": "Fairplay", "id": "48", "latitude": "39.12", "longitude": "-105.72", "municipality": "Park County" },
    { "name": "Holyoke", "id": "49", "latitude": "40.59", "longitude": "-102.35", "municipality": "Phillips County" },
    { "name": "Aspen", "id": "50", "latitude": "39.22", "longitude": "-106.92", "municipality": "Pitkin County" },
    { "name": "Lamar", "id": "51", "latitude": "37.96", "longitude": "-102.39", "municipality": "Prowers County" },
    { "name": "Pueblo", "id": "52", "latitude": "38.17", "longitude": "-104.49", "municipality": "Pueblo County" },
    { "name": "Meeker", "id": "53", "latitude": "39.97", "longitude": "-108.2", "municipality": "Rio Blanco County" },
    { "name": "Del Norte", "id": "54", "latitude": "37.49", "longitude": "-106.45", "municipality": "Rio Grande County" },
    { "name": "Steamboat Springs", "id": "55", "latitude": "40.48", "longitude": "-106.99", "municipality": "Routt County" },
    { "name": "Saguache", "id": "56", "latitude": "38.03", "longitude": "-106.25", "municipality": "Saguache County" },
    { "name": "Silverton", "id": "57", "latitude": "37.78", "longitude": "-107.67", "municipality": "San Juan County" },
    { "name": "Telluride", "id": "58", "latitude": "38.01", "longitude": "-108.43", "municipality": "San Miguel County" },
    { "name": "Julesburg", "id": "59", "latitude": "40.87", "longitude": "-102.36", "municipality": "Sedgwick County" },
    { "name": "Breckenridge", "id": "60", "latitude": "39.62", "longitude": "-106.14", "municipality": "Summit County" },
    { "name": "Cripple Creek", "id": "61", "latitude": "38.87", "longitude": "-105.18", "municipality": "Teller County" },
    { "name": "Akron", "id": "62", "latitude": "39.97", "longitude": "-103.21", "municipality": "Washington County" },
    { "name": "Greeley", "id": "63", "latitude": "40.56", "longitude": "-104.38", "municipality": "Weld County" },
    { "name": "Wray", "id": "64", "latitude": "40", "longitude": "-102.42", "municipality": "Yuma County" }
  ]
}